{"items":[
{
"title":"Hodinář v pasáži",
"locationLat":"50.0056569",
"locationLong":"14.4182111",
"address":"Pasáž Sofie (Prior)\nSofijské náměstí 6\nPraha 4",
"openingHours":"1: 900-1800, 2: 900-1800, 3: 900-1800, 4: 900-1800, 5: 900-1800",
"category":"remeslnik",
"filter":"Hodinářství"
},
{
"title":"MIRKA - Opravna obuvi",
"text":"Rychloopravna obuvi, výroba klíčů",
"locationLat":"50.0056397",
"locationLong":"14.4186564",
"address":"Pasáž Sofie (Prior)\nSofijské náměstí 6\nPraha 4",
"openingHours":"1: 900-1900, 2: 900-1900, 3: 900-1900, 4: 900-1900, 5: 900-1900, 6:900-1200",
"infoLink":"http:\/\/www.opravyobuvi.cz",
"category":"remeslnik",
"filter":"Oprava obuvi"
},
{
"title":"Simona Tůmová",
"text":"Opravy a úpravy oděvů, šití záclon",
"locationLat":"50.0058017",
"locationLong":"14.4141717",
"address":"Poliklinika Modřany, 2.patro\nSoukalova 3\nPraha 4",
"openingHours":"1: 800-1430, 2: 800-1700, 3: 800-1430, 4: 800-1800, 5: 800-1300",
"phone":"241 047 232",
"category":"remeslnik",
"filter":"Krejčovství"
},
{
"title":"Eva Košnářová",
"text":"Opravy a úpravy oděvů, šití bytového textilu",
"locationLat":"50.0053706",
"locationLong":"14.4144989",
"address":"Poliklinika Modřany, přízemí\nSoukalova 3\nPraha 4",
"openingHours":"1: 800-1500, 2: 1100-1800, 3: 800-1500, 4: 1100-1800, 5: 800-1200",
"category":"remeslnik",
"filter":"Krejčovství"
},
{
"title":"Fair Laundry",
"text":"Prádelna a čistírna oděvů",
"locationLat":"50.0130978",
"locationLong":"14.4211478",
"address":"pokladní zóna prodejny Billa Labe\nMazancova 3\nPraha 4",
"openingHours":"1: 1000-1900, 2: 1000-1900, 3: 1000-1900, 4: 1000-1900, 5: 1000-1900, 6: 900-1500",
"infoLink":"http:\/\/www.fairlaundry.cz",
"category":"obchod",
"filter":"Čistírna oděvů"
},
{
"title":"Řeznictví Košťál",
"locationLat":"50.0014378",
"locationLong":"14.4074633",
"address":"Pekárkova 15\nPraha 4",
"openingHours":"2: 900-1730, 3: 900-1730, 4: 900-1730, 5: 900-1730",
"category":"obchod",
"filter":"Řeznictví"
},
{
"title":"Kot a Fišer",
"locationLat":"49.9900614",
"locationLong":"14.4092442",
"address":"Na Homoli 2\nPraha 4",
"openingHours":"1: 700-1800, 2: 700-1800, 3: 700-1800, 4: 700-1800, 5: 700-1800, 6: 800-1100",
"phone":"241 772 833",
"category":"obchod",
"filter":"Řeznictví"
},
{
"title":"Statek Dvořák",
"text":"Vlastní vejce, kuřata, sezónně husy, kachny, králíci.\nKuřata nutno předem objednat.",
"locationLat":"49.9585972",
"locationLong":"14.4812367",
"address":"Náves sv. Petra a Pavla 14\nZlatníky - Hodkovice",
"openingHours":"5: 1400-1800, 6: 1000-1200",
"phone":"733 703 961",
"infoLink":"http:\/\/www.nosnice.cz",
"category":"obchod",
"filter":"Řeznictví"
},
]}