{"items":[
{
"title":"Často kladené otázky",
"text":"FAQ",
"category":"informace"
},
{
"title":"Web městské části",
"text":"www.praha12.cz",
"infoLink":"https:\/\/www.praha12.cz",
"category":"informace"
},
{
"title":"Facebook městské části",
"text":"Praha 12",
"infoLink":"https:\/\/www.facebook.com\/Praha-12-1010733405609946",
"category":"informace"
},
{
"title":"FB skupina obyvatel",
"text":"Modřany, Praha 12",
"infoLink":"https:\/\/www.facebook.com\/groups\/modrany",
"category":"informace"
},
{
"title":"Hlídač smluv Prahy 12",
"text":"Informace a analýzy z registru smluv uzavřených Prahou 12.",
"infoLink":"https:\/\/www.hlidacsmluv.cz\/Subjekt\/00231151",
"category":"informace"
},
{
"title":"Lékařská služba první pomoci",
"locationLat":"50.030006",
"locationLong":"14.4567378",
"address":"Thomayerova nemocnice\nPavilon B1\nVídeňská 800\nPraha 4",
"phone":"261 081 111",
"infoLink":"http:\/\/www.ftn.cz",
"openingHours":"1: 0-630, 1: 1900-2359, 2: 0-630, 2: 1900-2359, 3: 0-630, 3: 1900-2359, 4: 0-630, 4: 1900-2359, 5: 0-630, 5: 1900-2359, 6: 0-2359, 7: 0-2359",
"category":"prvniPomoc"
},
{
"title":"Zubní pohotovost",
"locationLat":"50.030006",
"locationLong":"14.4567378",
"address":"Thomayerova nemocnice\nPavilon B1\nVídeňská 800\nPraha 4",
"phone":"261 083 546",
"infoLink":"http:\/\/www.ftn.cz",
"openingHours":"1: 1730-2230, 2: 1730-2230, 3: 1730-2230, 4: 1730-2230, 5: 1730-2230, 6: 730-2230, 7: 730-2230",
"category":"prvniPomoc"
},
{
"title":"Policie ČR - Místní oddělení Modřany",
"locationLat":"50.0049343",
"locationLong":"14.4147559",
"address":"Soukalova 3408\nPraha 12",
"phone":"241 768 204",
"infoLink":"http:\/\/www.policie.cz",
"openingHours":"1: 730-1530, 2: 730-1530, 3: 730-1530, 4: 730-1530, 5: 730-1530",
"category":"policie"
},
{
"title":"Městská policie - obvodní ředitelství",
"locationLat":"50.00107",
"locationLong":"14.4221574",
"address":"Násirovo náměstí 1\nPraha 12",
"phone":"222 025 708",
"infoLink":"http:\/\/www.mppraha.cz",
"openingHours":"1: 0-2359, 2: 0-2359, 3: 0-2359, 4: 0-2359, 5: 0-2359, 6: 0-2359, 7: 0-2359",
"category":"policie"
},
{
"title":"Městská policie - služebna Libuš",
"locationLat":"50.0048786",
"locationLong":"14.4616769",
"address":"Zahrádecká 376\nPraha 4",
"phone":"244 471 687",
"infoLink":"http:\/\/www.mppraha.cz",
"text":"Okrskové služebny nejsou v provozu 24 hodin denně. Obraťte se případně na obvodní ředitelství.",
"category":"policie"
},
{
"title":"Městská policie - služebna Točná",
"locationLat":"49.9728344",
"locationLong":"14.4316736",
"address":"náměstí Anonína Pecáka 37\nPraha 12",
"phone":"241 910 821",
"infoLink":"http:\/\/www.mppraha.cz",
"text":"Okrskové služebny nejsou v provozu 24 hodin denně. Obraťte se případně na obvodní ředitelství.",
"category":"policie"
},
{
"title":"Městská policie - služebna Modřany",
"locationLat":"50.0016803",
"locationLong":"14.4126269",
"address":"Písková 23\nPraha 12",
"phone":"244 400 541",
"infoLink":"http:\/\/www.mppraha.cz",
"text":"Okrskové služebny nejsou v provozu 24 hodin denně. Obraťte se případně na obvodní ředitelství.",
"category":"policie"
},
{
"title":"Městská policie - služebna Komořany",
"locationLat":"49.9871786",
"locationLong":"14.4117528",
"address":"Palmetová 3\nPraha 12",
"phone":"244 400 507",
"infoLink":"http:\/\/www.mppraha.cz",
"text":"Okrskové služebny nejsou v provozu 24 hodin denně. Obraťte se případně na obvodní ředitelství.",
"category":"policie"
},
{
"title":"Městská policie - služebna Kamýk",
"locationLat":"50.0192833",
"locationLong":"14.4431044",
"address":"Čechtická 758\nPraha 12",
"phone":"261 397 309",
"infoLink":"http:\/\/www.mppraha.cz",
"text":"Okrskové služebny nejsou v provozu 24 hodin denně. Obraťte se případně na obvodní ředitelství.",
"category":"policie"
},
{
"title":"Dr. Max, Soukalova (Poliklinika Modřany)",
"locationLat":"50.0057919",
"locationLong":"14.4142543",
"address":"Poliklinika Modřany\nSoukalova 3355\nPraha 12",
"phone":"241 760 034",
"infoLink":"https:\/\/www.drmax.cz",
"openingHours":"1: 700-1900, 2: 700-1900, 3: 700-1900, 4: 700-1900, 5: 700-1900, 6: 800-1200",
"category":"lekarna"
},
{
"title":"Dr. Max, Lhotecká (Kaufland)",
"locationLat":"50.0136358",
"locationLong":"14.4191238",
"address":"Lhotecká 2d\nPraha 12",
"phone":"244 471 469",
"infoLink":"https:\/\/www.drmax.cz",
"openingHours":"1: 800-2000, 2: 800-2000, 3: 800-2000, 4: 800-2000, 5: 800-2000, 6: 800-2000, 7: 800-2000",
"category":"lekarna"
},
{
"title":"Dr. Max, Zdislavská (Jasná)",
"locationLat":"50.0175758",
"locationLong":"14.4431651",
"address":"Zdislavická 538\nPraha 12",
"phone":"244 473 372",
"infoLink":"https:\/\/www.drmax.cz",
"openingHours":"1: 800-1800, 2: 800-1800, 3: 800-1800, 4: 800-1800, 5: 800-1800",
"category":"lekarna"
},
{
"title":"Lékárna Zárubova",
"locationLat":"50.0152336",
"locationLong":"14.4351996",
"address":"Zárubova 31\nPraha 12",
"phone":"241 712 465",
"openingHours":"1: 700-1830, 2: 700-1830, 3: 700-1830, 4: 700-1830, 5: 700-1830",
"category":"lekarna"
},
{
"title":"Scarabeus",
"locationLat":"50.0059941",
"locationLong":"14.4172",
"address":"Sofijské náměstí 2\nPraha 12",
"phone":"241 767 177",
"openingHours":"1: 800-1800, 2: 800-1800, 3: 800-1800, 4: 800-1800, 5: 800-1800, 6: 830-1200",
"category":"lekarna"
},
{
"title":"Magistra Lékárna U polikliniky",
"locationLat":"50.006141",
"locationLong":"14.4159997",
"address":"Čs. exilu 26\nPraha 12",
"phone":"730 840 250",
"infoLink":"https:\/\/www.magistra.cz",
"openingHours":"1: 900-1200, 1:1230-1730, 2: 900-1200, 2:1230-1730, 3: 900-1200, 3:1230-1730, 4: 900-1200, 4:1230-1730, 5: 900-1200, 5:1230-1730, 6: 900-1200, 6:1230-1730",
"category":"lekarna"
},
{
"title":"U sv. Václava",
"locationLat":"50.0129968",
"locationLong":"14.4221272",
"address":"Mráčkova 3\nPraha 12",
"phone":"241 761 195",
"infoLink":"http:\/\/www.lekarnavaclav.cz",
"openingHours":"1: 730-1830, 2: 730-1830, 3: 730-1830, 4: 730-1830, 5: 730-1830, 6: 800-1200",
"category":"lekarna"
},
{
"title":"Lékárna Vltava",
"locationLat":"50.003119",
"locationLong":"14.4061768",
"address":"K Dolům 8\nPraha 12",
"phone":"226 804 998",
"infoLink":"http:\/\/www.lekarna-vltava.cz",
"openingHours":"1: 800-1900, 2: 800-1900, 3: 800-1900, 4: 800-1900, 5: 800-1900",
"category":"lekarna"
},
{
"title":"Libušská lékárna",
"locationLat":"50.007246",
"locationLong":"14.4631925",
"address":"Libušská 65\nPraha 4",
"phone":"241 471 287",
"openingHours":"1: 800-1800, 2: 800-1800, 3: 800-1800, 4: 800-1800, 5: 800-1800",
"category":"lekarna"
},
{
"title":"Písnická lékárna",
"locationLat":"50.0017294",
"locationLong":"14.466446",
"address":"Libušská 126\nPraha 4",
"phone":"244 091 111",
"openingHours":"1: 900-1800, 2: 900-1800, 3: 900-1800, 4: 900-1800, 5: 900-1800, 6: 900-1500",
"category":"lekarna"
},
{
"title":"Lékárna Kamýk",
"locationLat":"50.0149992",
"locationLong":"14.4372261",
"address":"Vosátkova 1\nPraha 12",
"phone":"241 011 277",
"openingHours":"1: 800-1830, 2: 800-1830, 3: 800-1830, 4: 800-1830, 5: 800-1830, 6: 800-1200",
"category":"lekarna"
}
]}